header: 
  seq: 25
  stamp: 
    secs: 1717595329
    nsecs: 249675273
  frame_id: "mono_cam"
detections: 
  - 
    id: [37]
    size: [0.0168]
    pose: 
      header: 
        seq: 25
        stamp: 
          secs: 1717595329
          nsecs: 249675273
        frame_id: "mono_cam"
      pose: 
        pose: 
          position: 
            x: -0.03156355589816969
            y: 0.029245345826591503
            z: 0.3228666576274792
          orientation: 
            x: 0.9921106378471086
            y: 0.050546494314457194
            z: -0.10948415827381282
            w: -0.03427467388898727
        covariance: [0.0, 0.0, 0.0, 0.0, 0.0, 0.0, 0.0, 0.0, 0.0, 0.0, 0.0, 0.0, 0.0, 0.0, 0.0, 0.0, 0.0, 0.0, 0.0, 0.0, 0.0, 0.0, 0.0, 0.0, 0.0, 0.0, 0.0, 0.0, 0.0, 0.0, 0.0, 0.0, 0.0, 0.0, 0.0, 0.0]
  - 
    id: [36]
    size: [0.084]
    pose: 
      header: 
        seq: 25
        stamp: 
          secs: 1717595329
          nsecs: 249675273
        frame_id: "mono_cam"
      pose: 
        pose: 
          position: 
            x: -0.03127773217219855
            y: 0.02911707051362703
            z: 0.3219267777151962
          orientation: 
            x: 0.9895758722193414
            y: 0.04630806696895928
            z: -0.12882019233996914
            w: -0.04472710699812232
        covariance: [0.0, 0.0, 0.0, 0.0, 0.0, 0.0, 0.0, 0.0, 0.0, 0.0, 0.0, 0.0, 0.0, 0.0, 0.0, 0.0, 0.0, 0.0, 0.0, 0.0, 0.0, 0.0, 0.0, 0.0, 0.0, 0.0, 0.0, 0.0, 0.0, 0.0, 0.0, 0.0, 0.0, 0.0, 0.0, 0.0]
  - 
    id: [72, 73, 84, 85, 80, 81, 2, 3, 20, 21, 32, 33, 38, 39, 34, 35, 36, 37, 28, 29, 42, 43, 30, 31, 40, 41, 26, 27, 44, 45, 60, 61, 88, 89, 48, 49, 56, 57, 0, 1, 22, 23, 8, 9, 14, 15, 68, 69, 64, 65, 4, 5, 18, 19, 10, 11, 12, 13, 92, 93, 76, 77, 6, 7, 16, 17, 24, 25, 46, 47, 52, 53, 110, 109]
    size: [0.084, 0.0168, 0.084, 0.0168, 0.084, 0.0168, 0.084, 0.0168, 0.084, 0.0168, 0.084, 0.0168, 0.084, 0.0168, 0.084, 0.0168, 0.084, 0.0168, 0.084, 0.0168, 0.084, 0.0168, 0.084, 0.0168, 0.084, 0.0168, 0.084, 0.0168, 0.084, 0.0168, 0.084, 0.0168, 0.084, 0.0168, 0.084, 0.0168, 0.084, 0.0168, 0.084, 0.0168, 0.084, 0.0168, 0.084, 0.0168, 0.084, 0.0168, 0.084, 0.0168, 0.084, 0.0168, 0.084, 0.0168, 0.084, 0.0168, 0.084, 0.0168, 0.084, 0.0168, 0.084, 0.0168, 0.084, 0.0168, 0.084, 0.0168, 0.084, 0.0168, 0.084, 0.0168, 0.084, 0.0168, 0.084, 0.0168, 0.084, 0.0168]
    pose: 
      header: 
        seq: 25
        stamp: 
          secs: 1717595329
          nsecs: 249675273
        frame_id: "mono_cam"
      pose: 
        pose: 
          position: 
            x: -0.5820014120542645
            y: 0.031171424063673823
            z: 0.736569456890272
          orientation: 
            x: 0.42936956641643315
            y: 0.604988958852923
            z: -0.5137371656333252
            w: 0.4309341710150839
        covariance: [0.0, 0.0, 0.0, 0.0, 0.0, 0.0, 0.0, 0.0, 0.0, 0.0, 0.0, 0.0, 0.0, 0.0, 0.0, 0.0, 0.0, 0.0, 0.0, 0.0, 0.0, 0.0, 0.0, 0.0, 0.0, 0.0, 0.0, 0.0, 0.0, 0.0, 0.0, 0.0, 0.0, 0.0, 0.0, 0.0]
---
header: 
  seq: 26
  stamp: 
    secs: 1717595330
    nsecs: 249610424
  frame_id: "mono_cam"
detections: 
  - 
    id: [37]
    size: [0.0168]
    pose: 
      header: 
        seq: 26
        stamp: 
          secs: 1717595330
          nsecs: 249610424
        frame_id: "mono_cam"
      pose: 
        pose: 
          position: 
            x: -0.03136156555059654
            y: 0.029108074969626863
            z: 0.32128291140335846
          orientation: 
            x: 0.9912481982283874
            y: 0.048785840390334734
            z: -0.11426959153459824
            w: -0.04460282207327878
        covariance: [0.0, 0.0, 0.0, 0.0, 0.0, 0.0, 0.0, 0.0, 0.0, 0.0, 0.0, 0.0, 0.0, 0.0, 0.0, 0.0, 0.0, 0.0, 0.0, 0.0, 0.0, 0.0, 0.0, 0.0, 0.0, 0.0, 0.0, 0.0, 0.0, 0.0, 0.0, 0.0, 0.0, 0.0, 0.0, 0.0]
  - 
    id: [36]
    size: [0.084]
    pose: 
      header: 
        seq: 26
        stamp: 
          secs: 1717595330
          nsecs: 249610424
        frame_id: "mono_cam"
      pose: 
        pose: 
          position: 
            x: -0.03126707680181596
            y: 0.029117822745860476
            z: 0.3216996239482598
          orientation: 
            x: 0.9892507125531644
            y: 0.046443968846347654
            z: -0.13104054036583646
            w: -0.04532507309961541
        covariance: [0.0, 0.0, 0.0, 0.0, 0.0, 0.0, 0.0, 0.0, 0.0, 0.0, 0.0, 0.0, 0.0, 0.0, 0.0, 0.0, 0.0, 0.0, 0.0, 0.0, 0.0, 0.0, 0.0, 0.0, 0.0, 0.0, 0.0, 0.0, 0.0, 0.0, 0.0, 0.0, 0.0, 0.0, 0.0, 0.0]
  - 
    id: [72, 73, 84, 85, 80, 81, 2, 3, 20, 21, 32, 33, 38, 39, 34, 35, 36, 37, 28, 29, 42, 43, 30, 31, 40, 41, 26, 27, 44, 45, 60, 61, 88, 89, 48, 49, 56, 57, 0, 1, 22, 23, 8, 9, 14, 15, 68, 69, 64, 65, 4, 5, 18, 19, 10, 11, 12, 13, 92, 93, 76, 77, 6, 7, 16, 17, 24, 25, 46, 47, 52, 53, 110, 109]
    size: [0.084, 0.0168, 0.084, 0.0168, 0.084, 0.0168, 0.084, 0.0168, 0.084, 0.0168, 0.084, 0.0168, 0.084, 0.0168, 0.084, 0.0168, 0.084, 0.0168, 0.084, 0.0168, 0.084, 0.0168, 0.084, 0.0168, 0.084, 0.0168, 0.084, 0.0168, 0.084, 0.0168, 0.084, 0.0168, 0.084, 0.0168, 0.084, 0.0168, 0.084, 0.0168, 0.084, 0.0168, 0.084, 0.0168, 0.084, 0.0168, 0.084, 0.0168, 0.084, 0.0168, 0.084, 0.0168, 0.084, 0.0168, 0.084, 0.0168, 0.084, 0.0168, 0.084, 0.0168, 0.084, 0.0168, 0.084, 0.0168, 0.084, 0.0168, 0.084, 0.0168, 0.084, 0.0168, 0.084, 0.0168, 0.084, 0.0168, 0.084, 0.0168]
    pose: 
      header: 
        seq: 26
        stamp: 
          secs: 1717595330
          nsecs: 249610424
        frame_id: "mono_cam"
      pose: 
        pose: 
          position: 
            x: -0.5802744322631521
            y: 0.0305422638951719
            z: 0.738574800080444
          orientation: 
            x: 0.4285436856735778
            y: 0.6062222201942604
            z: -0.5141874646204918
            w: 0.42948362068791146
        covariance: [0.0, 0.0, 0.0, 0.0, 0.0, 0.0, 0.0, 0.0, 0.0, 0.0, 0.0, 0.0, 0.0, 0.0, 0.0, 0.0, 0.0, 0.0, 0.0, 0.0, 0.0, 0.0, 0.0, 0.0, 0.0, 0.0, 0.0, 0.0, 0.0, 0.0, 0.0, 0.0, 0.0, 0.0, 0.0, 0.0]
---
header: 
  seq: 27
  stamp: 
    secs: 1717595331
    nsecs: 249643564
  frame_id: "mono_cam"
detections: 
  - 
    id: [37]
    size: [0.0168]
    pose: 
      header: 
        seq: 27
        stamp: 
          secs: 1717595331
          nsecs: 249643564
        frame_id: "mono_cam"
      pose: 
        pose: 
          position: 
            x: -0.03151579337815835
            y: 0.029210645119720026
            z: 0.32233457559612705
          orientation: 
            x: 0.9918939708699509
            y: 0.050616001278678026
            z: -0.11114310885404043
            w: -0.03509387867786202
        covariance: [0.0, 0.0, 0.0, 0.0, 0.0, 0.0, 0.0, 0.0, 0.0, 0.0, 0.0, 0.0, 0.0, 0.0, 0.0, 0.0, 0.0, 0.0, 0.0, 0.0, 0.0, 0.0, 0.0, 0.0, 0.0, 0.0, 0.0, 0.0, 0.0, 0.0, 0.0, 0.0, 0.0, 0.0, 0.0, 0.0]
  - 
    id: [36]
    size: [0.084]
    pose: 
      header: 
        seq: 27
        stamp: 
          secs: 1717595331
          nsecs: 249643564
        frame_id: "mono_cam"
      pose: 
        pose: 
          position: 
            x: -0.03127675912126466
            y: 0.029106788127357546
            z: 0.3218399138262633
          orientation: 
            x: 0.9895146631469498
            y: 0.046381036321342786
            z: -0.12909961586191315
            w: -0.04519756709429361
        covariance: [0.0, 0.0, 0.0, 0.0, 0.0, 0.0, 0.0, 0.0, 0.0, 0.0, 0.0, 0.0, 0.0, 0.0, 0.0, 0.0, 0.0, 0.0, 0.0, 0.0, 0.0, 0.0, 0.0, 0.0, 0.0, 0.0, 0.0, 0.0, 0.0, 0.0, 0.0, 0.0, 0.0, 0.0, 0.0, 0.0]
  - 
    id: [72, 73, 84, 85, 80, 81, 2, 3, 20, 21, 32, 33, 38, 39, 34, 35, 36, 37, 28, 29, 42, 43, 30, 31, 40, 41, 26, 27, 44, 45, 60, 61, 88, 89, 48, 49, 56, 57, 0, 1, 22, 23, 8, 9, 14, 15, 68, 69, 64, 65, 4, 5, 18, 19, 10, 11, 12, 13, 92, 93, 76, 77, 6, 7, 16, 17, 24, 25, 46, 47, 52, 53, 110, 109]
    size: [0.084, 0.0168, 0.084, 0.0168, 0.084, 0.0168, 0.084, 0.0168, 0.084, 0.0168, 0.084, 0.0168, 0.084, 0.0168, 0.084, 0.0168, 0.084, 0.0168, 0.084, 0.0168, 0.084, 0.0168, 0.084, 0.0168, 0.084, 0.0168, 0.084, 0.0168, 0.084, 0.0168, 0.084, 0.0168, 0.084, 0.0168, 0.084, 0.0168, 0.084, 0.0168, 0.084, 0.0168, 0.084, 0.0168, 0.084, 0.0168, 0.084, 0.0168, 0.084, 0.0168, 0.084, 0.0168, 0.084, 0.0168, 0.084, 0.0168, 0.084, 0.0168, 0.084, 0.0168, 0.084, 0.0168, 0.084, 0.0168, 0.084, 0.0168, 0.084, 0.0168, 0.084, 0.0168, 0.084, 0.0168, 0.084, 0.0168, 0.084, 0.0168]
    pose: 
      header: 
        seq: 27
        stamp: 
          secs: 1717595331
          nsecs: 249643564
        frame_id: "mono_cam"
      pose: 
        pose: 
          position: 
            x: -0.5817384508839831
            y: 0.03066048350640272
            z: 0.736806059544244
          orientation: 
            x: 0.4294588323582422
            y: 0.6054338481276473
            z: -0.51350527758186
            w: 0.4304965699589497
        covariance: [0.0, 0.0, 0.0, 0.0, 0.0, 0.0, 0.0, 0.0, 0.0, 0.0, 0.0, 0.0, 0.0, 0.0, 0.0, 0.0, 0.0, 0.0, 0.0, 0.0, 0.0, 0.0, 0.0, 0.0, 0.0, 0.0, 0.0, 0.0, 0.0, 0.0, 0.0, 0.0, 0.0, 0.0, 0.0, 0.0]
---
header: 
  seq: 28
  stamp: 
    secs: 1717595332
    nsecs: 249577522
  frame_id: "mono_cam"
detections: 
  - 
    id: [37]
    size: [0.0168]
    pose: 
      header: 
        seq: 28
        stamp: 
          secs: 1717595332
          nsecs: 249577522
        frame_id: "mono_cam"
      pose: 
        pose: 
          position: 
            x: -0.031143955434328043
            y: 0.028889955843606444
            z: 0.3181622036301066
          orientation: 
            x: 0.9882332804496273
            y: 0.05140395061576197
            z: -0.13267955781435128
            w: -0.05611374351305279
        covariance: [0.0, 0.0, 0.0, 0.0, 0.0, 0.0, 0.0, 0.0, 0.0, 0.0, 0.0, 0.0, 0.0, 0.0, 0.0, 0.0, 0.0, 0.0, 0.0, 0.0, 0.0, 0.0, 0.0, 0.0, 0.0, 0.0, 0.0, 0.0, 0.0, 0.0, 0.0, 0.0, 0.0, 0.0, 0.0, 0.0]
  - 
    id: [36]
    size: [0.084]
    pose: 
      header: 
        seq: 28
        stamp: 
          secs: 1717595332
          nsecs: 249577522
        frame_id: "mono_cam"
      pose: 
        pose: 
          position: 
            x: -0.03132591240276597
            y: 0.02912286410280397
            z: 0.3215552700191992
          orientation: 
            x: 0.9892816438475132
            y: 0.0460621792411428
            z: -0.13047422106637957
            w: -0.046653857579417084
        covariance: [0.0, 0.0, 0.0, 0.0, 0.0, 0.0, 0.0, 0.0, 0.0, 0.0, 0.0, 0.0, 0.0, 0.0, 0.0, 0.0, 0.0, 0.0, 0.0, 0.0, 0.0, 0.0, 0.0, 0.0, 0.0, 0.0, 0.0, 0.0, 0.0, 0.0, 0.0, 0.0, 0.0, 0.0, 0.0, 0.0]
  - 
    id: [72, 73, 84, 85, 80, 81, 2, 3, 20, 21, 32, 33, 38, 39, 34, 35, 36, 37, 28, 29, 42, 43, 30, 31, 40, 41, 26, 27, 44, 45, 60, 61, 88, 89, 48, 49, 56, 57, 0, 1, 22, 23, 8, 9, 14, 15, 68, 69, 64, 65, 4, 5, 18, 19, 10, 11, 12, 13, 92, 93, 76, 77, 6, 7, 16, 17, 24, 25, 46, 47, 52, 53, 110, 109]
    size: [0.084, 0.0168, 0.084, 0.0168, 0.084, 0.0168, 0.084, 0.0168, 0.084, 0.0168, 0.084, 0.0168, 0.084, 0.0168, 0.084, 0.0168, 0.084, 0.0168, 0.084, 0.0168, 0.084, 0.0168, 0.084, 0.0168, 0.084, 0.0168, 0.084, 0.0168, 0.084, 0.0168, 0.084, 0.0168, 0.084, 0.0168, 0.084, 0.0168, 0.084, 0.0168, 0.084, 0.0168, 0.084, 0.0168, 0.084, 0.0168, 0.084, 0.0168, 0.084, 0.0168, 0.084, 0.0168, 0.084, 0.0168, 0.084, 0.0168, 0.084, 0.0168, 0.084, 0.0168, 0.084, 0.0168, 0.084, 0.0168, 0.084, 0.0168, 0.084, 0.0168, 0.084, 0.0168, 0.084, 0.0168, 0.084, 0.0168, 0.084, 0.0168]
    pose: 
      header: 
        seq: 28
        stamp: 
          secs: 1717595332
          nsecs: 249577522
        frame_id: "mono_cam"
      pose: 
        pose: 
          position: 
            x: -0.5802106502424095
            y: 0.029469301456066466
            z: 0.7384648117739179
          orientation: 
            x: 0.4296398091815312
            y: 0.6070826645920022
            z: -0.5132618187083765
            w: 0.4282786221310864
        covariance: [0.0, 0.0, 0.0, 0.0, 0.0, 0.0, 0.0, 0.0, 0.0, 0.0, 0.0, 0.0, 0.0, 0.0, 0.0, 0.0, 0.0, 0.0, 0.0, 0.0, 0.0, 0.0, 0.0, 0.0, 0.0, 0.0, 0.0, 0.0, 0.0, 0.0, 0.0, 0.0, 0.0, 0.0, 0.0, 0.0]
---
header: 
  seq: 29
  stamp: 
    secs: 1717595333
    nsecs: 249618768
  frame_id: "mono_cam"
detections: 
  - 
    id: [37]
    size: [0.0168]
    pose: 
      header: 
        seq: 29
        stamp: 
          secs: 1717595333
          nsecs: 249618768
        frame_id: "mono_cam"
      pose: 
        pose: 
          position: 
            x: -0.027646726885512694
            y: 0.019094375790565467
            z: 0.33392634358901213
          orientation: 
            x: 0.9865677298785537
            y: 0.08600177505415954
            z: -0.13781100768700225
            w: 0.017202767512926695
        covariance: [0.0, 0.0, 0.0, 0.0, 0.0, 0.0, 0.0, 0.0, 0.0, 0.0, 0.0, 0.0, 0.0, 0.0, 0.0, 0.0, 0.0, 0.0, 0.0, 0.0, 0.0, 0.0, 0.0, 0.0, 0.0, 0.0, 0.0, 0.0, 0.0, 0.0, 0.0, 0.0, 0.0, 0.0, 0.0, 0.0]
  - 
    id: [36]
    size: [0.084]
    pose: 
      header: 
        seq: 29
        stamp: 
          secs: 1717595333
          nsecs: 249618768
        frame_id: "mono_cam"
      pose: 
        pose: 
          position: 
            x: -0.027541453359395313
            y: 0.01905955309670422
            z: 0.3345092158689256
          orientation: 
            x: 0.9873347428575673
            y: 0.08276593150965492
            z: -0.13389618774325537
            w: 0.019791842651545023
        covariance: [0.0, 0.0, 0.0, 0.0, 0.0, 0.0, 0.0, 0.0, 0.0, 0.0, 0.0, 0.0, 0.0, 0.0, 0.0, 0.0, 0.0, 0.0, 0.0, 0.0, 0.0, 0.0, 0.0, 0.0, 0.0, 0.0, 0.0, 0.0, 0.0, 0.0, 0.0, 0.0, 0.0, 0.0, 0.0, 0.0]
  - 
    id: [72, 73, 84, 85, 80, 81, 2, 3, 20, 21, 32, 33, 38, 39, 34, 35, 36, 37, 28, 29, 42, 43, 30, 31, 40, 41, 26, 27, 44, 45, 60, 61, 88, 89, 48, 49, 56, 57, 0, 1, 22, 23, 8, 9, 14, 15, 68, 69, 64, 65, 4, 5, 18, 19, 10, 11, 12, 13, 92, 93, 76, 77, 6, 7, 16, 17, 24, 25, 46, 47, 52, 53, 110, 109]
    size: [0.084, 0.0168, 0.084, 0.0168, 0.084, 0.0168, 0.084, 0.0168, 0.084, 0.0168, 0.084, 0.0168, 0.084, 0.0168, 0.084, 0.0168, 0.084, 0.0168, 0.084, 0.0168, 0.084, 0.0168, 0.084, 0.0168, 0.084, 0.0168, 0.084, 0.0168, 0.084, 0.0168, 0.084, 0.0168, 0.084, 0.0168, 0.084, 0.0168, 0.084, 0.0168, 0.084, 0.0168, 0.084, 0.0168, 0.084, 0.0168, 0.084, 0.0168, 0.084, 0.0168, 0.084, 0.0168, 0.084, 0.0168, 0.084, 0.0168, 0.084, 0.0168, 0.084, 0.0168, 0.084, 0.0168, 0.084, 0.0168, 0.084, 0.0168, 0.084, 0.0168, 0.084, 0.0168, 0.084, 0.0168, 0.084, 0.0168, 0.084, 0.0168]
    pose: 
      header: 
        seq: 29
        stamp: 
          secs: 1717595333
          nsecs: 249618768
        frame_id: "mono_cam"
      pose: 
        pose: 
          position: 
            x: -0.5773367679204571
            y: 0.020583816912148164
            z: 0.7503684643293443
          orientation: 
            x: 0.3753277404807469
            y: 0.593026897164446
            z: -0.5290352806558981
            w: 0.4770428264699741
        covariance: [0.0, 0.0, 0.0, 0.0, 0.0, 0.0, 0.0, 0.0, 0.0, 0.0, 0.0, 0.0, 0.0, 0.0, 0.0, 0.0, 0.0, 0.0, 0.0, 0.0, 0.0, 0.0, 0.0, 0.0, 0.0, 0.0, 0.0, 0.0, 0.0, 0.0, 0.0, 0.0, 0.0, 0.0, 0.0, 0.0]
---
header: 
  seq: 30
  stamp: 
    secs: 1717595334
    nsecs: 249647378
  frame_id: "mono_cam"
detections: 
  - 
    id: [37]
    size: [0.0168]
    pose: 
      header: 
        seq: 30
        stamp: 
          secs: 1717595334
          nsecs: 249647378
        frame_id: "mono_cam"
      pose: 
        pose: 
          position: 
            x: -0.03052815048401013
            y: 0.024166949908908573
            z: 0.32044348995083055
          orientation: 
            x: 0.9638926076587461
            y: 0.07377648936173625
            z: 0.2164590374342553
            w: 0.13643150527394984
        covariance: [0.0, 0.0, 0.0, 0.0, 0.0, 0.0, 0.0, 0.0, 0.0, 0.0, 0.0, 0.0, 0.0, 0.0, 0.0, 0.0, 0.0, 0.0, 0.0, 0.0, 0.0, 0.0, 0.0, 0.0, 0.0, 0.0, 0.0, 0.0, 0.0, 0.0, 0.0, 0.0, 0.0, 0.0, 0.0, 0.0]
  - 
    id: [36]
    size: [0.084]
    pose: 
      header: 
        seq: 30
        stamp: 
          secs: 1717595334
          nsecs: 249647378
        frame_id: "mono_cam"
      pose: 
        pose: 
          position: 
            x: -0.030885037741857663
            y: 0.024393880190513872
            z: 0.32426044228546264
          orientation: 
            x: 0.9888637167797427
            y: 0.066901588355396
            z: -0.13052192233512783
            w: -0.02523400289333277
        covariance: [0.0, 0.0, 0.0, 0.0, 0.0, 0.0, 0.0, 0.0, 0.0, 0.0, 0.0, 0.0, 0.0, 0.0, 0.0, 0.0, 0.0, 0.0, 0.0, 0.0, 0.0, 0.0, 0.0, 0.0, 0.0, 0.0, 0.0, 0.0, 0.0, 0.0, 0.0, 0.0, 0.0, 0.0, 0.0, 0.0]
  - 
    id: [72, 73, 84, 85, 80, 81, 2, 3, 20, 21, 32, 33, 38, 39, 34, 35, 36, 37, 28, 29, 42, 43, 30, 31, 40, 41, 26, 27, 44, 45, 60, 61, 88, 89, 48, 49, 56, 57, 0, 1, 22, 23, 8, 9, 14, 15, 68, 69, 64, 65, 4, 5, 18, 19, 10, 11, 12, 13, 92, 93, 76, 77, 6, 7, 16, 17, 24, 25, 46, 47, 52, 53, 110, 109]
    size: [0.084, 0.0168, 0.084, 0.0168, 0.084, 0.0168, 0.084, 0.0168, 0.084, 0.0168, 0.084, 0.0168, 0.084, 0.0168, 0.084, 0.0168, 0.084, 0.0168, 0.084, 0.0168, 0.084, 0.0168, 0.084, 0.0168, 0.084, 0.0168, 0.084, 0.0168, 0.084, 0.0168, 0.084, 0.0168, 0.084, 0.0168, 0.084, 0.0168, 0.084, 0.0168, 0.084, 0.0168, 0.084, 0.0168, 0.084, 0.0168, 0.084, 0.0168, 0.084, 0.0168, 0.084, 0.0168, 0.084, 0.0168, 0.084, 0.0168, 0.084, 0.0168, 0.084, 0.0168, 0.084, 0.0168, 0.084, 0.0168, 0.084, 0.0168, 0.084, 0.0168, 0.084, 0.0168, 0.084, 0.0168, 0.084, 0.0168, 0.084, 0.0168]
    pose: 
      header: 
        seq: 30
        stamp: 
          secs: 1717595334
          nsecs: 249647378
        frame_id: "mono_cam"
      pose: 
        pose: 
          position: 
            x: -0.5811578084217823
            y: 0.013705862173924674
            z: 0.739192161249614
          orientation: 
            x: 0.4089508529830276
            y: 0.6070543153274226
            z: -0.5127984705891421
            w: 0.44864461063100375
        covariance: [0.0, 0.0, 0.0, 0.0, 0.0, 0.0, 0.0, 0.0, 0.0, 0.0, 0.0, 0.0, 0.0, 0.0, 0.0, 0.0, 0.0, 0.0, 0.0, 0.0, 0.0, 0.0, 0.0, 0.0, 0.0, 0.0, 0.0, 0.0, 0.0, 0.0, 0.0, 0.0, 0.0, 0.0, 0.0, 0.0]
---
header: 
  seq: 31
  stamp: 
    secs: 1717595335
    nsecs: 249572753
  frame_id: "mono_cam"
detections: 
  - 
    id: [37]
    size: [0.0168]
    pose: 
      header: 
        seq: 31
        stamp: 
          secs: 1717595335
          nsecs: 249572753
        frame_id: "mono_cam"
      pose: 
        pose: 
          position: 
            x: -0.030540787077088336
            y: 0.024540720781938963
            z: 0.3225704469281594
          orientation: 
            x: 0.9655146327448518
            y: 0.07526255195553051
            z: 0.21690073187692688
            w: 0.12276446855653522
        covariance: [0.0, 0.0, 0.0, 0.0, 0.0, 0.0, 0.0, 0.0, 0.0, 0.0, 0.0, 0.0, 0.0, 0.0, 0.0, 0.0, 0.0, 0.0, 0.0, 0.0, 0.0, 0.0, 0.0, 0.0, 0.0, 0.0, 0.0, 0.0, 0.0, 0.0, 0.0, 0.0, 0.0, 0.0, 0.0, 0.0]
  - 
    id: [36]
    size: [0.084]
    pose: 
      header: 
        seq: 31
        stamp: 
          secs: 1717595335
          nsecs: 249572753
        frame_id: "mono_cam"
      pose: 
        pose: 
          position: 
            x: -0.030701035848407957
            y: 0.02463709768927125
            z: 0.32379158083039095
          orientation: 
            x: 0.9886343009807761
            y: 0.06867705572697179
            z: -0.12974189670177244
            w: -0.032445665059499584
        covariance: [0.0, 0.0, 0.0, 0.0, 0.0, 0.0, 0.0, 0.0, 0.0, 0.0, 0.0, 0.0, 0.0, 0.0, 0.0, 0.0, 0.0, 0.0, 0.0, 0.0, 0.0, 0.0, 0.0, 0.0, 0.0, 0.0, 0.0, 0.0, 0.0, 0.0, 0.0, 0.0, 0.0, 0.0, 0.0, 0.0]
  - 
    id: [72, 73, 84, 85, 80, 81, 2, 3, 20, 21, 32, 33, 38, 39, 34, 35, 36, 37, 28, 29, 42, 43, 30, 31, 40, 41, 26, 27, 44, 45, 60, 61, 88, 89, 48, 49, 56, 57, 0, 1, 22, 23, 8, 9, 14, 15, 68, 69, 64, 65, 4, 5, 18, 19, 10, 11, 12, 13, 92, 93, 76, 77, 6, 7, 16, 17, 24, 25, 46, 47, 52, 53, 110, 109]
    size: [0.084, 0.0168, 0.084, 0.0168, 0.084, 0.0168, 0.084, 0.0168, 0.084, 0.0168, 0.084, 0.0168, 0.084, 0.0168, 0.084, 0.0168, 0.084, 0.0168, 0.084, 0.0168, 0.084, 0.0168, 0.084, 0.0168, 0.084, 0.0168, 0.084, 0.0168, 0.084, 0.0168, 0.084, 0.0168, 0.084, 0.0168, 0.084, 0.0168, 0.084, 0.0168, 0.084, 0.0168, 0.084, 0.0168, 0.084, 0.0168, 0.084, 0.0168, 0.084, 0.0168, 0.084, 0.0168, 0.084, 0.0168, 0.084, 0.0168, 0.084, 0.0168, 0.084, 0.0168, 0.084, 0.0168, 0.084, 0.0168, 0.084, 0.0168, 0.084, 0.0168, 0.084, 0.0168, 0.084, 0.0168, 0.084, 0.0168, 0.084, 0.0168]
    pose: 
      header: 
        seq: 31
        stamp: 
          secs: 1717595335
          nsecs: 249572753
        frame_id: "mono_cam"
      pose: 
        pose: 
          position: 
            x: -0.5814192844572831
            y: 0.007842704609406951
            z: 0.7380531872996984
          orientation: 
            x: 0.4114263336727232
            y: 0.610287417362077
            z: -0.5084303012876664
            w: 0.4469633865348253
        covariance: [0.0, 0.0, 0.0, 0.0, 0.0, 0.0, 0.0, 0.0, 0.0, 0.0, 0.0, 0.0, 0.0, 0.0, 0.0, 0.0, 0.0, 0.0, 0.0, 0.0, 0.0, 0.0, 0.0, 0.0, 0.0, 0.0, 0.0, 0.0, 0.0, 0.0, 0.0, 0.0, 0.0, 0.0, 0.0, 0.0]
---
header: 
  seq: 32
  stamp: 
    secs: 1717595336
    nsecs: 249613285
  frame_id: "mono_cam"
detections: 
  - 
    id: [37]
    size: [0.0168]
    pose: 
      header: 
        seq: 32
        stamp: 
          secs: 1717595336
          nsecs: 249613285
        frame_id: "mono_cam"
      pose: 
        pose: 
          position: 
            x: -0.03088446871983503
            y: 0.02548102508927248
            z: 0.32054216608547037
          orientation: 
            x: 0.9892507260131769
            y: 0.057377083749664645
            z: -0.12110041398801637
            w: -0.05852829294211227
        covariance: [0.0, 0.0, 0.0, 0.0, 0.0, 0.0, 0.0, 0.0, 0.0, 0.0, 0.0, 0.0, 0.0, 0.0, 0.0, 0.0, 0.0, 0.0, 0.0, 0.0, 0.0, 0.0, 0.0, 0.0, 0.0, 0.0, 0.0, 0.0, 0.0, 0.0, 0.0, 0.0, 0.0, 0.0, 0.0, 0.0]
  - 
    id: [36]
    size: [0.084]
    pose: 
      header: 
        seq: 32
        stamp: 
          secs: 1717595336
          nsecs: 249613285
        frame_id: "mono_cam"
      pose: 
        pose: 
          position: 
            x: -0.031105088349293732
            y: 0.02571524869603578
            z: 0.32423807247436626
          orientation: 
            x: 0.9890251136818854
            y: 0.06418735315883642
            z: -0.13021081466959783
            w: -0.02746728861894151
        covariance: [0.0, 0.0, 0.0, 0.0, 0.0, 0.0, 0.0, 0.0, 0.0, 0.0, 0.0, 0.0, 0.0, 0.0, 0.0, 0.0, 0.0, 0.0, 0.0, 0.0, 0.0, 0.0, 0.0, 0.0, 0.0, 0.0, 0.0, 0.0, 0.0, 0.0, 0.0, 0.0, 0.0, 0.0, 0.0, 0.0]
  - 
    id: [72, 73, 84, 85, 80, 81, 2, 3, 20, 21, 32, 33, 38, 39, 34, 35, 36, 37, 28, 29, 42, 43, 30, 31, 40, 41, 26, 27, 44, 45, 60, 61, 88, 89, 48, 49, 56, 57, 0, 1, 22, 23, 8, 9, 14, 15, 68, 69, 64, 65, 4, 5, 18, 19, 10, 11, 12, 13, 92, 93, 76, 77, 6, 7, 16, 17, 24, 25, 46, 47, 52, 53, 110, 109]
    size: [0.084, 0.0168, 0.084, 0.0168, 0.084, 0.0168, 0.084, 0.0168, 0.084, 0.0168, 0.084, 0.0168, 0.084, 0.0168, 0.084, 0.0168, 0.084, 0.0168, 0.084, 0.0168, 0.084, 0.0168, 0.084, 0.0168, 0.084, 0.0168, 0.084, 0.0168, 0.084, 0.0168, 0.084, 0.0168, 0.084, 0.0168, 0.084, 0.0168, 0.084, 0.0168, 0.084, 0.0168, 0.084, 0.0168, 0.084, 0.0168, 0.084, 0.0168, 0.084, 0.0168, 0.084, 0.0168, 0.084, 0.0168, 0.084, 0.0168, 0.084, 0.0168, 0.084, 0.0168, 0.084, 0.0168, 0.084, 0.0168, 0.084, 0.0168, 0.084, 0.0168, 0.084, 0.0168, 0.084, 0.0168, 0.084, 0.0168, 0.084, 0.0168]
    pose: 
      header: 
        seq: 32
        stamp: 
          secs: 1717595336
          nsecs: 249613285
        frame_id: "mono_cam"
      pose: 
        pose: 
          position: 
            x: -0.5817613449530045
            y: 0.017590290630872342
            z: 0.7387454004186408
          orientation: 
            x: 0.4117201829631654
            y: 0.6061652790255777
            z: -0.5133564537310058
            w: 0.4466713521789223
        covariance: [0.0, 0.0, 0.0, 0.0, 0.0, 0.0, 0.0, 0.0, 0.0, 0.0, 0.0, 0.0, 0.0, 0.0, 0.0, 0.0, 0.0, 0.0, 0.0, 0.0, 0.0, 0.0, 0.0, 0.0, 0.0, 0.0, 0.0, 0.0, 0.0, 0.0, 0.0, 0.0, 0.0, 0.0, 0.0, 0.0]
---
header: 
  seq: 33
  stamp: 
    secs: 1717595337
    nsecs: 249665975
  frame_id: "mono_cam"
detections: 
  - 
    id: [37]
    size: [0.0168]
    pose: 
      header: 
        seq: 33
        stamp: 
          secs: 1717595337
          nsecs: 249665975
        frame_id: "mono_cam"
      pose: 
        pose: 
          position: 
            x: -0.030924661338659044
            y: 0.025165205027632327
            z: 0.32206090699093837
          orientation: 
            x: 0.9900245397232486
            y: 0.05677978612846955
            z: -0.11856072350120718
            w: -0.05070326888717766
        covariance: [0.0, 0.0, 0.0, 0.0, 0.0, 0.0, 0.0, 0.0, 0.0, 0.0, 0.0, 0.0, 0.0, 0.0, 0.0, 0.0, 0.0, 0.0, 0.0, 0.0, 0.0, 0.0, 0.0, 0.0, 0.0, 0.0, 0.0, 0.0, 0.0, 0.0, 0.0, 0.0, 0.0, 0.0, 0.0, 0.0]
  - 
    id: [36]
    size: [0.084]
    pose: 
      header: 
        seq: 33
        stamp: 
          secs: 1717595337
          nsecs: 249665975
        frame_id: "mono_cam"
      pose: 
        pose: 
          position: 
            x: -0.03094813660111547
            y: 0.025222010047896752
            z: 0.3233137289466515
          orientation: 
            x: 0.9886926113795242
            y: 0.06580816326807512
            z: -0.1306551498981107
            w: -0.03294598087660475
        covariance: [0.0, 0.0, 0.0, 0.0, 0.0, 0.0, 0.0, 0.0, 0.0, 0.0, 0.0, 0.0, 0.0, 0.0, 0.0, 0.0, 0.0, 0.0, 0.0, 0.0, 0.0, 0.0, 0.0, 0.0, 0.0, 0.0, 0.0, 0.0, 0.0, 0.0, 0.0, 0.0, 0.0, 0.0, 0.0, 0.0]
  - 
    id: [72, 73, 84, 85, 80, 81, 2, 3, 20, 21, 32, 33, 38, 39, 34, 35, 36, 37, 28, 29, 42, 43, 30, 31, 40, 41, 26, 27, 44, 45, 60, 61, 88, 89, 48, 49, 56, 57, 0, 1, 22, 23, 8, 9, 14, 15, 68, 69, 64, 65, 4, 5, 18, 19, 10, 11, 12, 13, 92, 93, 76, 77, 6, 7, 16, 17, 24, 25, 46, 47, 52, 53, 110, 109]
    size: [0.084, 0.0168, 0.084, 0.0168, 0.084, 0.0168, 0.084, 0.0168, 0.084, 0.0168, 0.084, 0.0168, 0.084, 0.0168, 0.084, 0.0168, 0.084, 0.0168, 0.084, 0.0168, 0.084, 0.0168, 0.084, 0.0168, 0.084, 0.0168, 0.084, 0.0168, 0.084, 0.0168, 0.084, 0.0168, 0.084, 0.0168, 0.084, 0.0168, 0.084, 0.0168, 0.084, 0.0168, 0.084, 0.0168, 0.084, 0.0168, 0.084, 0.0168, 0.084, 0.0168, 0.084, 0.0168, 0.084, 0.0168, 0.084, 0.0168, 0.084, 0.0168, 0.084, 0.0168, 0.084, 0.0168, 0.084, 0.0168, 0.084, 0.0168, 0.084, 0.0168, 0.084, 0.0168, 0.084, 0.0168, 0.084, 0.0168, 0.084, 0.0168]
    pose: 
      header: 
        seq: 33
        stamp: 
          secs: 1717595337
          nsecs: 249665975
        frame_id: "mono_cam"
      pose: 
        pose: 
          position: 
            x: -0.5811571106613882
            y: 0.011918217175515503
            z: 0.7383733631086642
          orientation: 
            x: 0.41314742848471736
            y: 0.609338972056996
            z: -0.5101017648592524
            w: 0.4447599453148458
        covariance: [0.0, 0.0, 0.0, 0.0, 0.0, 0.0, 0.0, 0.0, 0.0, 0.0, 0.0, 0.0, 0.0, 0.0, 0.0, 0.0, 0.0, 0.0, 0.0, 0.0, 0.0, 0.0, 0.0, 0.0, 0.0, 0.0, 0.0, 0.0, 0.0, 0.0, 0.0, 0.0, 0.0, 0.0, 0.0, 0.0]
---
header: 
  seq: 34
  stamp: 
    secs: 1717595338
    nsecs: 249640226
  frame_id: "mono_cam"
detections: 
  - 
    id: [37]
    size: [0.0168]
    pose: 
      header: 
        seq: 34
        stamp: 
          secs: 1717595338
          nsecs: 249640226
        frame_id: "mono_cam"
      pose: 
        pose: 
          position: 
            x: -0.030941568293384535
            y: 0.025201653814056067
            z: 0.3197055169199045
          orientation: 
            x: 0.989326837285199
            y: 0.05881927268537371
            z: -0.12034294181351327
            w: -0.05736094964083626
        covariance: [0.0, 0.0, 0.0, 0.0, 0.0, 0.0, 0.0, 0.0, 0.0, 0.0, 0.0, 0.0, 0.0, 0.0, 0.0, 0.0, 0.0, 0.0, 0.0, 0.0, 0.0, 0.0, 0.0, 0.0, 0.0, 0.0, 0.0, 0.0, 0.0, 0.0, 0.0, 0.0, 0.0, 0.0, 0.0, 0.0]
  - 
    id: [36]
    size: [0.084]
    pose: 
      header: 
        seq: 34
        stamp: 
          secs: 1717595338
          nsecs: 249640226
        frame_id: "mono_cam"
      pose: 
        pose: 
          position: 
            x: -0.031050016515072932
            y: 0.025359104365222106
            z: 0.32243798799118034
          orientation: 
            x: 0.9885382109942094
            y: 0.06440318234253656
            z: -0.1310646952917508
            w: -0.03829466224687831
        covariance: [0.0, 0.0, 0.0, 0.0, 0.0, 0.0, 0.0, 0.0, 0.0, 0.0, 0.0, 0.0, 0.0, 0.0, 0.0, 0.0, 0.0, 0.0, 0.0, 0.0, 0.0, 0.0, 0.0, 0.0, 0.0, 0.0, 0.0, 0.0, 0.0, 0.0, 0.0, 0.0, 0.0, 0.0, 0.0, 0.0]
  - 
    id: [72, 73, 84, 85, 80, 81, 2, 3, 20, 21, 32, 33, 38, 39, 34, 35, 36, 37, 28, 29, 42, 43, 30, 31, 40, 41, 26, 27, 44, 45, 60, 61, 88, 89, 48, 49, 56, 57, 0, 1, 22, 23, 8, 9, 14, 15, 68, 69, 64, 65, 4, 5, 18, 19, 10, 11, 12, 13, 92, 93, 76, 77, 6, 7, 16, 17, 24, 25, 46, 47, 52, 53, 110, 109]
    size: [0.084, 0.0168, 0.084, 0.0168, 0.084, 0.0168, 0.084, 0.0168, 0.084, 0.0168, 0.084, 0.0168, 0.084, 0.0168, 0.084, 0.0168, 0.084, 0.0168, 0.084, 0.0168, 0.084, 0.0168, 0.084, 0.0168, 0.084, 0.0168, 0.084, 0.0168, 0.084, 0.0168, 0.084, 0.0168, 0.084, 0.0168, 0.084, 0.0168, 0.084, 0.0168, 0.084, 0.0168, 0.084, 0.0168, 0.084, 0.0168, 0.084, 0.0168, 0.084, 0.0168, 0.084, 0.0168, 0.084, 0.0168, 0.084, 0.0168, 0.084, 0.0168, 0.084, 0.0168, 0.084, 0.0168, 0.084, 0.0168, 0.084, 0.0168, 0.084, 0.0168, 0.084, 0.0168, 0.084, 0.0168, 0.084, 0.0168, 0.084, 0.0168]
    pose: 
      header: 
        seq: 34
        stamp: 
          secs: 1717595338
          nsecs: 249640226
        frame_id: "mono_cam"
      pose: 
        pose: 
          position: 
            x: -0.5803847402919206
            y: 0.009810105214929261
            z: 0.7385041340693437
          orientation: 
            x: 0.41610733432633207
            y: 0.6117290295154488
            z: -0.5082119347654155
            w: 0.440866090927749
        covariance: [0.0, 0.0, 0.0, 0.0, 0.0, 0.0, 0.0, 0.0, 0.0, 0.0, 0.0, 0.0, 0.0, 0.0, 0.0, 0.0, 0.0, 0.0, 0.0, 0.0, 0.0, 0.0, 0.0, 0.0, 0.0, 0.0, 0.0, 0.0, 0.0, 0.0, 0.0, 0.0, 0.0, 0.0, 0.0, 0.0]
---
header: 
  seq: 35
  stamp: 
    secs: 1717595339
    nsecs: 249614238
  frame_id: "mono_cam"
detections: 
  - 
    id: [37]
    size: [0.0168]
    pose: 
      header: 
        seq: 35
        stamp: 
          secs: 1717595339
          nsecs: 249614238
        frame_id: "mono_cam"
      pose: 
        pose: 
          position: 
            x: -0.030730319767378073
            y: 0.025165047212391024
            z: 0.31972262085558933
          orientation: 
            x: 0.9891640037970424
            y: 0.05805806580302235
            z: -0.12152346788161858
            w: -0.058445541672928814
        covariance: [0.0, 0.0, 0.0, 0.0, 0.0, 0.0, 0.0, 0.0, 0.0, 0.0, 0.0, 0.0, 0.0, 0.0, 0.0, 0.0, 0.0, 0.0, 0.0, 0.0, 0.0, 0.0, 0.0, 0.0, 0.0, 0.0, 0.0, 0.0, 0.0, 0.0, 0.0, 0.0, 0.0, 0.0, 0.0, 0.0]
  - 
    id: [36]
    size: [0.084]
    pose: 
      header: 
        seq: 35
        stamp: 
          secs: 1717595339
          nsecs: 249614238
        frame_id: "mono_cam"
      pose: 
        pose: 
          position: 
            x: -0.03093352197178472
            y: 0.025347995156199597
            z: 0.3229560883994893
          orientation: 
            x: 0.9886031177157849
            y: 0.06456732946906546
            z: -0.1316420406657173
            w: -0.03413661871405455
        covariance: [0.0, 0.0, 0.0, 0.0, 0.0, 0.0, 0.0, 0.0, 0.0, 0.0, 0.0, 0.0, 0.0, 0.0, 0.0, 0.0, 0.0, 0.0, 0.0, 0.0, 0.0, 0.0, 0.0, 0.0, 0.0, 0.0, 0.0, 0.0, 0.0, 0.0, 0.0, 0.0, 0.0, 0.0, 0.0, 0.0]
  - 
    id: [72, 73, 84, 85, 80, 81, 2, 3, 20, 21, 32, 33, 38, 39, 34, 35, 36, 37, 28, 29, 42, 43, 30, 31, 40, 41, 26, 27, 44, 45, 60, 61, 88, 89, 48, 49, 56, 57, 0, 1, 22, 23, 8, 9, 14, 15, 68, 69, 64, 65, 4, 5, 18, 19, 10, 11, 12, 13, 92, 93, 76, 77, 6, 7, 16, 17, 24, 25, 46, 47, 52, 53, 110, 109]
    size: [0.084, 0.0168, 0.084, 0.0168, 0.084, 0.0168, 0.084, 0.0168, 0.084, 0.0168, 0.084, 0.0168, 0.084, 0.0168, 0.084, 0.0168, 0.084, 0.0168, 0.084, 0.0168, 0.084, 0.0168, 0.084, 0.0168, 0.084, 0.0168, 0.084, 0.0168, 0.084, 0.0168, 0.084, 0.0168, 0.084, 0.0168, 0.084, 0.0168, 0.084, 0.0168, 0.084, 0.0168, 0.084, 0.0168, 0.084, 0.0168, 0.084, 0.0168, 0.084, 0.0168, 0.084, 0.0168, 0.084, 0.0168, 0.084, 0.0168, 0.084, 0.0168, 0.084, 0.0168, 0.084, 0.0168, 0.084, 0.0168, 0.084, 0.0168, 0.084, 0.0168, 0.084, 0.0168, 0.084, 0.0168, 0.084, 0.0168, 0.084, 0.0168]
    pose: 
      header: 
        seq: 35
        stamp: 
          secs: 1717595339
          nsecs: 249614238
        frame_id: "mono_cam"
      pose: 
        pose: 
          position: 
            x: -0.5801777773675499
            y: 0.01231134553833648
            z: 0.7392095294860821
          orientation: 
            x: 0.4139608342188511
            y: 0.6100532011049608
            z: -0.5103131695457349
            w: 0.4427775836044653
        covariance: [0.0, 0.0, 0.0, 0.0, 0.0, 0.0, 0.0, 0.0, 0.0, 0.0, 0.0, 0.0, 0.0, 0.0, 0.0, 0.0, 0.0, 0.0, 0.0, 0.0, 0.0, 0.0, 0.0, 0.0, 0.0, 0.0, 0.0, 0.0, 0.0, 0.0, 0.0, 0.0, 0.0, 0.0, 0.0, 0.0]
---
header: 
  seq: 36
  stamp: 
    secs: 1717595340
    nsecs: 249653577
  frame_id: "mono_cam"
detections: 
  - 
    id: [37]
    size: [0.0168]
    pose: 
      header: 
        seq: 36
        stamp: 
          secs: 1717595340
          nsecs: 249653577
        frame_id: "mono_cam"
      pose: 
        pose: 
          position: 
            x: -0.030713180828135796
            y: 0.0251461629472289
            z: 0.3193986926691671
          orientation: 
            x: 0.9886450122476363
            y: 0.05745719547843945
            z: -0.12578894696840784
            w: -0.058794993547090536
        covariance: [0.0, 0.0, 0.0, 0.0, 0.0, 0.0, 0.0, 0.0, 0.0, 0.0, 0.0, 0.0, 0.0, 0.0, 0.0, 0.0, 0.0, 0.0, 0.0, 0.0, 0.0, 0.0, 0.0, 0.0, 0.0, 0.0, 0.0, 0.0, 0.0, 0.0, 0.0, 0.0, 0.0, 0.0, 0.0, 0.0]
  - 
    id: [36]
    size: [0.084]
    pose: 
      header: 
        seq: 36
        stamp: 
          secs: 1717595340
          nsecs: 249653577
        frame_id: "mono_cam"
      pose: 
        pose: 
          position: 
            x: -0.030906029098506392
            y: 0.025340173328238718
            z: 0.3227648333188554
          orientation: 
            x: 0.9885202468487495
            y: 0.06452700202569131
            z: -0.1321975840409662
            w: -0.034464276481530005
        covariance: [0.0, 0.0, 0.0, 0.0, 0.0, 0.0, 0.0, 0.0, 0.0, 0.0, 0.0, 0.0, 0.0, 0.0, 0.0, 0.0, 0.0, 0.0, 0.0, 0.0, 0.0, 0.0, 0.0, 0.0, 0.0, 0.0, 0.0, 0.0, 0.0, 0.0, 0.0, 0.0, 0.0, 0.0, 0.0, 0.0]
  - 
    id: [72, 73, 84, 85, 80, 81, 2, 3, 20, 21, 32, 33, 38, 39, 34, 35, 36, 37, 28, 29, 42, 43, 30, 31, 40, 41, 26, 27, 44, 45, 60, 61, 88, 89, 48, 49, 56, 57, 0, 1, 22, 23, 8, 9, 14, 15, 68, 69, 64, 65, 4, 5, 18, 19, 10, 11, 12, 13, 92, 93, 76, 77, 6, 7, 16, 17, 24, 25, 46, 47, 52, 53, 110, 109]
    size: [0.084, 0.0168, 0.084, 0.0168, 0.084, 0.0168, 0.084, 0.0168, 0.084, 0.0168, 0.084, 0.0168, 0.084, 0.0168, 0.084, 0.0168, 0.084, 0.0168, 0.084, 0.0168, 0.084, 0.0168, 0.084, 0.0168, 0.084, 0.0168, 0.084, 0.0168, 0.084, 0.0168, 0.084, 0.0168, 0.084, 0.0168, 0.084, 0.0168, 0.084, 0.0168, 0.084, 0.0168, 0.084, 0.0168, 0.084, 0.0168, 0.084, 0.0168, 0.084, 0.0168, 0.084, 0.0168, 0.084, 0.0168, 0.084, 0.0168, 0.084, 0.0168, 0.084, 0.0168, 0.084, 0.0168, 0.084, 0.0168, 0.084, 0.0168, 0.084, 0.0168, 0.084, 0.0168, 0.084, 0.0168, 0.084, 0.0168, 0.084, 0.0168]
    pose: 
      header: 
        seq: 36
        stamp: 
          secs: 1717595340
          nsecs: 249653577
        frame_id: "mono_cam"
      pose: 
        pose: 
          position: 
            x: -0.5794842130389868
            y: 0.012133308067697324
            z: 0.7398862775558404
          orientation: 
            x: 0.41372683144640826
            y: 0.6105363546166076
            z: -0.5104986379959572
            w: 0.4421160585604774
        covariance: [0.0, 0.0, 0.0, 0.0, 0.0, 0.0, 0.0, 0.0, 0.0, 0.0, 0.0, 0.0, 0.0, 0.0, 0.0, 0.0, 0.0, 0.0, 0.0, 0.0, 0.0, 0.0, 0.0, 0.0, 0.0, 0.0, 0.0, 0.0, 0.0, 0.0, 0.0, 0.0, 0.0, 0.0, 0.0, 0.0]
---
header: 
  seq: 37
  stamp: 
    secs: 1717595341
    nsecs: 262288570
  frame_id: "mono_cam"
detections: 
  - 
    id: [37]
    size: [0.0168]
    pose: 
      header: 
        seq: 37
        stamp: 
          secs: 1717595341
          nsecs: 262288570
        frame_id: "mono_cam"
      pose: 
        pose: 
          position: 
            x: -0.030716882710931207
            y: 0.02517060242687919
            z: 0.3197984240972302
          orientation: 
            x: 0.9888210976934099
            y: 0.05760512145052772
            z: -0.1252130743428902
            w: -0.056887369008169715
        covariance: [0.0, 0.0, 0.0, 0.0, 0.0, 0.0, 0.0, 0.0, 0.0, 0.0, 0.0, 0.0, 0.0, 0.0, 0.0, 0.0, 0.0, 0.0, 0.0, 0.0, 0.0, 0.0, 0.0, 0.0, 0.0, 0.0, 0.0, 0.0, 0.0, 0.0, 0.0, 0.0, 0.0, 0.0, 0.0, 0.0]
  - 
    id: [36]
    size: [0.084]
    pose: 
      header: 
        seq: 37
        stamp: 
          secs: 1717595341
          nsecs: 262288570
        frame_id: "mono_cam"
      pose: 
        pose: 
          position: 
            x: -0.030905824145582676
            y: 0.02533491699890711
            z: 0.323152250041351
          orientation: 
            x: 0.9887176892008531
            y: 0.06474732043762922
            z: -0.13109515309415232
            w: -0.032544990285648424
        covariance: [0.0, 0.0, 0.0, 0.0, 0.0, 0.0, 0.0, 0.0, 0.0, 0.0, 0.0, 0.0, 0.0, 0.0, 0.0, 0.0, 0.0, 0.0, 0.0, 0.0, 0.0, 0.0, 0.0, 0.0, 0.0, 0.0, 0.0, 0.0, 0.0, 0.0, 0.0, 0.0, 0.0, 0.0, 0.0, 0.0]
  - 
    id: [72, 73, 84, 85, 80, 81, 2, 3, 20, 21, 32, 33, 38, 39, 34, 35, 36, 37, 28, 29, 42, 43, 30, 31, 40, 41, 26, 27, 44, 45, 60, 61, 88, 89, 48, 49, 56, 57, 0, 1, 22, 23, 8, 9, 14, 15, 68, 69, 64, 65, 4, 5, 18, 19, 10, 11, 12, 13, 92, 93, 76, 77, 6, 7, 16, 17, 24, 25, 46, 47, 52, 53, 110, 109]
    size: [0.084, 0.0168, 0.084, 0.0168, 0.084, 0.0168, 0.084, 0.0168, 0.084, 0.0168, 0.084, 0.0168, 0.084, 0.0168, 0.084, 0.0168, 0.084, 0.0168, 0.084, 0.0168, 0.084, 0.0168, 0.084, 0.0168, 0.084, 0.0168, 0.084, 0.0168, 0.084, 0.0168, 0.084, 0.0168, 0.084, 0.0168, 0.084, 0.0168, 0.084, 0.0168, 0.084, 0.0168, 0.084, 0.0168, 0.084, 0.0168, 0.084, 0.0168, 0.084, 0.0168, 0.084, 0.0168, 0.084, 0.0168, 0.084, 0.0168, 0.084, 0.0168, 0.084, 0.0168, 0.084, 0.0168, 0.084, 0.0168, 0.084, 0.0168, 0.084, 0.0168, 0.084, 0.0168, 0.084, 0.0168, 0.084, 0.0168, 0.084, 0.0168]
    pose: 
      header: 
        seq: 37
        stamp: 
          secs: 1717595341
          nsecs: 262288570
        frame_id: "mono_cam"
      pose: 
        pose: 
          position: 
            x: -0.5804836199292794
            y: 0.01301760508149423
            z: 0.7389706447977937
          orientation: 
            x: 0.4134221062345326
            y: 0.6093643237070759
            z: -0.510776592579873
            w: 0.44369421400567693
        covariance: [0.0, 0.0, 0.0, 0.0, 0.0, 0.0, 0.0, 0.0, 0.0, 0.0, 0.0, 0.0, 0.0, 0.0, 0.0, 0.0, 0.0, 0.0, 0.0, 0.0, 0.0, 0.0, 0.0, 0.0, 0.0, 0.0, 0.0, 0.0, 0.0, 0.0, 0.0, 0.0, 0.0, 0.0, 0.0, 0.0]
---
header: 
  seq: 38
  stamp: 
    secs: 1717595342
    nsecs: 249664783
  frame_id: "mono_cam"
detections: 
  - 
    id: [37]
    size: [0.0168]
    pose: 
      header: 
        seq: 38
        stamp: 
          secs: 1717595342
          nsecs: 249664783
        frame_id: "mono_cam"
      pose: 
        pose: 
          position: 
            x: -0.030750884936208762
            y: 0.025207180139111107
            z: 0.3202237520238641
          orientation: 
            x: 0.9894396099747348
            y: 0.057999183966328534
            z: -0.12046774985443838
            w: -0.055972083374600225
        covariance: [0.0, 0.0, 0.0, 0.0, 0.0, 0.0, 0.0, 0.0, 0.0, 0.0, 0.0, 0.0, 0.0, 0.0, 0.0, 0.0, 0.0, 0.0, 0.0, 0.0, 0.0, 0.0, 0.0, 0.0, 0.0, 0.0, 0.0, 0.0, 0.0, 0.0, 0.0, 0.0, 0.0, 0.0, 0.0, 0.0]
  - 
    id: [36]
    size: [0.084]
    pose: 
      header: 
        seq: 38
        stamp: 
          secs: 1717595342
          nsecs: 249664783
        frame_id: "mono_cam"
      pose: 
        pose: 
          position: 
            x: -0.03091221860348749
            y: 0.025331536371155695
            z: 0.3230397486383989
          orientation: 
            x: 0.9886578495140785
            y: 0.0649495590745647
            z: -0.13139839274671575
            w: -0.03273642854370664
        covariance: [0.0, 0.0, 0.0, 0.0, 0.0, 0.0, 0.0, 0.0, 0.0, 0.0, 0.0, 0.0, 0.0, 0.0, 0.0, 0.0, 0.0, 0.0, 0.0, 0.0, 0.0, 0.0, 0.0, 0.0, 0.0, 0.0, 0.0, 0.0, 0.0, 0.0, 0.0, 0.0, 0.0, 0.0, 0.0, 0.0]
  - 
    id: [72, 73, 84, 85, 80, 81, 2, 3, 20, 21, 32, 33, 38, 39, 34, 35, 36, 37, 28, 29, 42, 43, 30, 31, 40, 41, 26, 27, 44, 45, 60, 61, 88, 89, 48, 49, 56, 57, 0, 1, 22, 23, 8, 9, 14, 15, 68, 69, 64, 65, 4, 5, 18, 19, 10, 11, 12, 13, 92, 93, 76, 77, 6, 7, 16, 17, 24, 25, 46, 47, 52, 53, 110, 109]
    size: [0.084, 0.0168, 0.084, 0.0168, 0.084, 0.0168, 0.084, 0.0168, 0.084, 0.0168, 0.084, 0.0168, 0.084, 0.0168, 0.084, 0.0168, 0.084, 0.0168, 0.084, 0.0168, 0.084, 0.0168, 0.084, 0.0168, 0.084, 0.0168, 0.084, 0.0168, 0.084, 0.0168, 0.084, 0.0168, 0.084, 0.0168, 0.084, 0.0168, 0.084, 0.0168, 0.084, 0.0168, 0.084, 0.0168, 0.084, 0.0168, 0.084, 0.0168, 0.084, 0.0168, 0.084, 0.0168, 0.084, 0.0168, 0.084, 0.0168, 0.084, 0.0168, 0.084, 0.0168, 0.084, 0.0168, 0.084, 0.0168, 0.084, 0.0168, 0.084, 0.0168, 0.084, 0.0168, 0.084, 0.0168, 0.084, 0.0168, 0.084, 0.0168]
    pose: 
      header: 
        seq: 38
        stamp: 
          secs: 1717595342
          nsecs: 249664783
        frame_id: "mono_cam"
      pose: 
        pose: 
          position: 
            x: -0.5804411363593933
            y: 0.012701461837000343
            z: 0.7389328548504285
          orientation: 
            x: 0.41332839618349915
            y: 0.6095229445171235
            z: -0.5106363824724427
            w: 0.44372502961970606
        covariance: [0.0, 0.0, 0.0, 0.0, 0.0, 0.0, 0.0, 0.0, 0.0, 0.0, 0.0, 0.0, 0.0, 0.0, 0.0, 0.0, 0.0, 0.0, 0.0, 0.0, 0.0, 0.0, 0.0, 0.0, 0.0, 0.0, 0.0, 0.0, 0.0, 0.0, 0.0, 0.0, 0.0, 0.0, 0.0, 0.0]
---
header: 
  seq: 39
  stamp: 
    secs: 1717595343
    nsecs: 249579429
  frame_id: "mono_cam"
detections: 
  - 
    id: [37]
    size: [0.0168]
    pose: 
      header: 
        seq: 39
        stamp: 
          secs: 1717595343
          nsecs: 249579429
        frame_id: "mono_cam"
      pose: 
        pose: 
          position: 
            x: -0.030733658704613084
            y: 0.02520017597817714
            z: 0.3203677950696359
          orientation: 
            x: 0.9896710425473406
            y: 0.05744801023097891
            z: -0.12159812062732685
            w: -0.049647263002742095
        covariance: [0.0, 0.0, 0.0, 0.0, 0.0, 0.0, 0.0, 0.0, 0.0, 0.0, 0.0, 0.0, 0.0, 0.0, 0.0, 0.0, 0.0, 0.0, 0.0, 0.0, 0.0, 0.0, 0.0, 0.0, 0.0, 0.0, 0.0, 0.0, 0.0, 0.0, 0.0, 0.0, 0.0, 0.0, 0.0, 0.0]
  - 
    id: [36]
    size: [0.084]
    pose: 
      header: 
        seq: 39
        stamp: 
          secs: 1717595343
          nsecs: 249579429
        frame_id: "mono_cam"
      pose: 
        pose: 
          position: 
            x: -0.030865336697457054
            y: 0.02533961929555061
            z: 0.3232285552549245
          orientation: 
            x: 0.9887827503441979
            y: 0.06477722000905176
            z: -0.1304508471289203
            w: -0.03309321490894597
        covariance: [0.0, 0.0, 0.0, 0.0, 0.0, 0.0, 0.0, 0.0, 0.0, 0.0, 0.0, 0.0, 0.0, 0.0, 0.0, 0.0, 0.0, 0.0, 0.0, 0.0, 0.0, 0.0, 0.0, 0.0, 0.0, 0.0, 0.0, 0.0, 0.0, 0.0, 0.0, 0.0, 0.0, 0.0, 0.0, 0.0]
  - 
    id: [72, 73, 84, 85, 80, 81, 2, 3, 20, 21, 32, 33, 38, 39, 34, 35, 36, 37, 28, 29, 42, 43, 30, 31, 40, 41, 26, 27, 44, 45, 60, 61, 88, 89, 48, 49, 56, 57, 0, 1, 22, 23, 8, 9, 14, 15, 68, 69, 64, 65, 4, 5, 18, 19, 10, 11, 12, 13, 92, 93, 76, 77, 6, 7, 16, 17, 24, 25, 46, 47, 52, 53, 110, 109]
    size: [0.084, 0.0168, 0.084, 0.0168, 0.084, 0.0168, 0.084, 0.0168, 0.084, 0.0168, 0.084, 0.0168, 0.084, 0.0168, 0.084, 0.0168, 0.084, 0.0168, 0.084, 0.0168, 0.084, 0.0168, 0.084, 0.0168, 0.084, 0.0168, 0.084, 0.0168, 0.084, 0.0168, 0.084, 0.0168, 0.084, 0.0168, 0.084, 0.0168, 0.084, 0.0168, 0.084, 0.0168, 0.084, 0.0168, 0.084, 0.0168, 0.084, 0.0168, 0.084, 0.0168, 0.084, 0.0168, 0.084, 0.0168, 0.084, 0.0168, 0.084, 0.0168, 0.084, 0.0168, 0.084, 0.0168, 0.084, 0.0168, 0.084, 0.0168, 0.084, 0.0168, 0.084, 0.0168, 0.084, 0.0168, 0.084, 0.0168, 0.084, 0.0168]
    pose: 
      header: 
        seq: 39
        stamp: 
          secs: 1717595343
          nsecs: 249579429
        frame_id: "mono_cam"
      pose: 
        pose: 
          position: 
            x: -0.5809945062359017
            y: 0.01285997788998113
            z: 0.7383284908727294
          orientation: 
            x: 0.4138810322969224
            y: 0.6091782172058322
            z: -0.5103791031838758
            w: 0.4439792357982299
        covariance: [0.0, 0.0, 0.0, 0.0, 0.0, 0.0, 0.0, 0.0, 0.0, 0.0, 0.0, 0.0, 0.0, 0.0, 0.0, 0.0, 0.0, 0.0, 0.0, 0.0, 0.0, 0.0, 0.0, 0.0, 0.0, 0.0, 0.0, 0.0, 0.0, 0.0, 0.0, 0.0, 0.0, 0.0, 0.0, 0.0]
---
header: 
  seq: 40
  stamp: 
    secs: 1717595344
    nsecs: 249669790
  frame_id: "mono_cam"
detections: 
  - 
    id: [37]
    size: [0.0168]
    pose: 
      header: 
        seq: 40
        stamp: 
          secs: 1717595344
          nsecs: 249669790
        frame_id: "mono_cam"
      pose: 
        pose: 
          position: 
            x: -0.03077618108932867
            y: 0.025263155777980925
            z: 0.321166084140271
          orientation: 
            x: 0.9902628311901469
            y: 0.057565768038112516
            z: -0.1182284574698866
            w: -0.04569178654581309
        covariance: [0.0, 0.0, 0.0, 0.0, 0.0, 0.0, 0.0, 0.0, 0.0, 0.0, 0.0, 0.0, 0.0, 0.0, 0.0, 0.0, 0.0, 0.0, 0.0, 0.0, 0.0, 0.0, 0.0, 0.0, 0.0, 0.0, 0.0, 0.0, 0.0, 0.0, 0.0, 0.0, 0.0, 0.0, 0.0, 0.0]
  - 
    id: [36]
    size: [0.084]
    pose: 
      header: 
        seq: 40
        stamp: 
          secs: 1717595344
          nsecs: 249669790
        frame_id: "mono_cam"
      pose: 
        pose: 
          position: 
            x: -0.030842891398219715
            y: 0.025330259106454662
            z: 0.32317840146188287
          orientation: 
            x: 0.9887498645003243
            y: 0.064520293494115
            z: -0.13124735304684707
            w: -0.03138422368356118
        covariance: [0.0, 0.0, 0.0, 0.0, 0.0, 0.0, 0.0, 0.0, 0.0, 0.0, 0.0, 0.0, 0.0, 0.0, 0.0, 0.0, 0.0, 0.0, 0.0, 0.0, 0.0, 0.0, 0.0, 0.0, 0.0, 0.0, 0.0, 0.0, 0.0, 0.0, 0.0, 0.0, 0.0, 0.0, 0.0, 0.0]
  - 
    id: [72, 73, 84, 85, 80, 81, 2, 3, 20, 21, 32, 33, 38, 39, 34, 35, 36, 37, 28, 29, 42, 43, 30, 31, 40, 41, 26, 27, 44, 45, 60, 61, 88, 89, 48, 49, 56, 57, 0, 1, 22, 23, 8, 9, 14, 15, 68, 69, 64, 65, 4, 5, 18, 19, 10, 11, 12, 13, 92, 93, 76, 77, 6, 7, 16, 17, 24, 25, 46, 47, 52, 53, 110, 109]
    size: [0.084, 0.0168, 0.084, 0.0168, 0.084, 0.0168, 0.084, 0.0168, 0.084, 0.0168, 0.084, 0.0168, 0.084, 0.0168, 0.084, 0.0168, 0.084, 0.0168, 0.084, 0.0168, 0.084, 0.0168, 0.084, 0.0168, 0.084, 0.0168, 0.084, 0.0168, 0.084, 0.0168, 0.084, 0.0168, 0.084, 0.0168, 0.084, 0.0168, 0.084, 0.0168, 0.084, 0.0168, 0.084, 0.0168, 0.084, 0.0168, 0.084, 0.0168, 0.084, 0.0168, 0.084, 0.0168, 0.084, 0.0168, 0.084, 0.0168, 0.084, 0.0168, 0.084, 0.0168, 0.084, 0.0168, 0.084, 0.0168, 0.084, 0.0168, 0.084, 0.0168, 0.084, 0.0168, 0.084, 0.0168, 0.084, 0.0168, 0.084, 0.0168]
    pose: 
      header: 
        seq: 40
        stamp: 
          secs: 1717595344
          nsecs: 249669790
        frame_id: "mono_cam"
      pose: 
        pose: 
          position: 
            x: -0.5805633003985631
            y: 0.014339339005480243
            z: 0.7388893339390626
          orientation: 
            x: 0.41282736809600373
            y: 0.6084792291916864
            z: -0.511669827655631
            w: 0.44443287373919
        covariance: [0.0, 0.0, 0.0, 0.0, 0.0, 0.0, 0.0, 0.0, 0.0, 0.0, 0.0, 0.0, 0.0, 0.0, 0.0, 0.0, 0.0, 0.0, 0.0, 0.0, 0.0, 0.0, 0.0, 0.0, 0.0, 0.0, 0.0, 0.0, 0.0, 0.0, 0.0, 0.0, 0.0, 0.0, 0.0, 0.0]
---
header: 
  seq: 41
  stamp: 
    secs: 1717595345
    nsecs: 249627351
  frame_id: "mono_cam"
detections: 
  - 
    id: [37]
    size: [0.0168]
    pose: 
      header: 
        seq: 41
        stamp: 
          secs: 1717595345
          nsecs: 249627351
        frame_id: "mono_cam"
      pose: 
        pose: 
          position: 
            x: -0.030682147601186968
            y: 0.025186655264967547
            z: 0.32034955825379147
          orientation: 
            x: 0.9888495222446573
            y: 0.05773613503164049
            z: -0.12864328036652728
            w: -0.0478964245498589
        covariance: [0.0, 0.0, 0.0, 0.0, 0.0, 0.0, 0.0, 0.0, 0.0, 0.0, 0.0, 0.0, 0.0, 0.0, 0.0, 0.0, 0.0, 0.0, 0.0, 0.0, 0.0, 0.0, 0.0, 0.0, 0.0, 0.0, 0.0, 0.0, 0.0, 0.0, 0.0, 0.0, 0.0, 0.0, 0.0, 0.0]
  - 
    id: [36]
    size: [0.084]
    pose: 
      header: 
        seq: 41
        stamp: 
          secs: 1717595345
          nsecs: 249627351
        frame_id: "mono_cam"
      pose: 
        pose: 
          position: 
            x: -0.030825953586550187
            y: 0.025331395979930765
            z: 0.32314027521411587
          orientation: 
            x: 0.9885660871138896
            y: 0.06485249493305965
            z: -0.1320358439071112
            w: -0.03313278184861823
        covariance: [0.0, 0.0, 0.0, 0.0, 0.0, 0.0, 0.0, 0.0, 0.0, 0.0, 0.0, 0.0, 0.0, 0.0, 0.0, 0.0, 0.0, 0.0, 0.0, 0.0, 0.0, 0.0, 0.0, 0.0, 0.0, 0.0, 0.0, 0.0, 0.0, 0.0, 0.0, 0.0, 0.0, 0.0, 0.0, 0.0]
  - 
    id: [72, 73, 84, 85, 80, 81, 2, 3, 20, 21, 32, 33, 38, 39, 34, 35, 36, 37, 28, 29, 42, 43, 30, 31, 40, 41, 26, 27, 44, 45, 60, 61, 88, 89, 48, 49, 56, 57, 0, 1, 22, 23, 8, 9, 14, 15, 68, 69, 64, 65, 4, 5, 18, 19, 10, 11, 12, 13, 92, 93, 76, 77, 6, 7, 16, 17, 24, 25, 46, 47, 52, 53, 110, 109]
    size: [0.084, 0.0168, 0.084, 0.0168, 0.084, 0.0168, 0.084, 0.0168, 0.084, 0.0168, 0.084, 0.0168, 0.084, 0.0168, 0.084, 0.0168, 0.084, 0.0168, 0.084, 0.0168, 0.084, 0.0168, 0.084, 0.0168, 0.084, 0.0168, 0.084, 0.0168, 0.084, 0.0168, 0.084, 0.0168, 0.084, 0.0168, 0.084, 0.0168, 0.084, 0.0168, 0.084, 0.0168, 0.084, 0.0168, 0.084, 0.0168, 0.084, 0.0168, 0.084, 0.0168, 0.084, 0.0168, 0.084, 0.0168, 0.084, 0.0168, 0.084, 0.0168, 0.084, 0.0168, 0.084, 0.0168, 0.084, 0.0168, 0.084, 0.0168, 0.084, 0.0168, 0.084, 0.0168, 0.084, 0.0168, 0.084, 0.0168, 0.084, 0.0168]
    pose: 
      header: 
        seq: 41
        stamp: 
          secs: 1717595345
          nsecs: 249627351
        frame_id: "mono_cam"
      pose: 
        pose: 
          position: 
            x: -0.5795787520685814
            y: 0.012804979926819676
            z: 0.7400674179880419
          orientation: 
            x: 0.41285749036008534
            y: 0.6098853858421157
            z: -0.511088236912652
            w: 0.4431448102813602
        covariance: [0.0, 0.0, 0.0, 0.0, 0.0, 0.0, 0.0, 0.0, 0.0, 0.0, 0.0, 0.0, 0.0, 0.0, 0.0, 0.0, 0.0, 0.0, 0.0, 0.0, 0.0, 0.0, 0.0, 0.0, 0.0, 0.0, 0.0, 0.0, 0.0, 0.0, 0.0, 0.0, 0.0, 0.0, 0.0, 0.0]
---
header: 
  seq: 42
  stamp: 
    secs: 1717595346
    nsecs: 249723434
  frame_id: "mono_cam"
detections: 
  - 
    id: [37]
    size: [0.0168]
    pose: 
      header: 
        seq: 42
        stamp: 
          secs: 1717595346
          nsecs: 249723434
        frame_id: "mono_cam"
      pose: 
        pose: 
          position: 
            x: -0.0309104791646829
            y: 0.025411300962390682
            z: 0.3235967859426746
          orientation: 
            x: 0.9912207573839592
            y: 0.05790251295485688
            z: -0.11563426936632641
            w: -0.02752135303357471
        covariance: [0.0, 0.0, 0.0, 0.0, 0.0, 0.0, 0.0, 0.0, 0.0, 0.0, 0.0, 0.0, 0.0, 0.0, 0.0, 0.0, 0.0, 0.0, 0.0, 0.0, 0.0, 0.0, 0.0, 0.0, 0.0, 0.0, 0.0, 0.0, 0.0, 0.0, 0.0, 0.0, 0.0, 0.0, 0.0, 0.0]
  - 
    id: [36]
    size: [0.084]
    pose: 
      header: 
        seq: 42
        stamp: 
          secs: 1717595346
          nsecs: 249723434
        frame_id: "mono_cam"
      pose: 
        pose: 
          position: 
            x: -0.030772796725875184
            y: 0.02532698088405275
            z: 0.3234884979239155
          orientation: 
            x: 0.988719876371283
            y: 0.06526849305004827
            z: -0.13126707331869097
            w: -0.030691779773680122
        covariance: [0.0, 0.0, 0.0, 0.0, 0.0, 0.0, 0.0, 0.0, 0.0, 0.0, 0.0, 0.0, 0.0, 0.0, 0.0, 0.0, 0.0, 0.0, 0.0, 0.0, 0.0, 0.0, 0.0, 0.0, 0.0, 0.0, 0.0, 0.0, 0.0, 0.0, 0.0, 0.0, 0.0, 0.0, 0.0, 0.0]
  - 
    id: [72, 73, 84, 85, 80, 81, 2, 3, 20, 21, 32, 33, 38, 39, 34, 35, 36, 37, 28, 29, 42, 43, 30, 31, 40, 41, 26, 27, 44, 45, 60, 61, 88, 89, 48, 49, 56, 57, 0, 1, 22, 23, 8, 9, 14, 15, 68, 69, 64, 65, 4, 5, 18, 19, 10, 11, 12, 13, 92, 93, 76, 77, 6, 7, 16, 17, 24, 25, 46, 47, 52, 53, 110, 109]
    size: [0.084, 0.0168, 0.084, 0.0168, 0.084, 0.0168, 0.084, 0.0168, 0.084, 0.0168, 0.084, 0.0168, 0.084, 0.0168, 0.084, 0.0168, 0.084, 0.0168, 0.084, 0.0168, 0.084, 0.0168, 0.084, 0.0168, 0.084, 0.0168, 0.084, 0.0168, 0.084, 0.0168, 0.084, 0.0168, 0.084, 0.0168, 0.084, 0.0168, 0.084, 0.0168, 0.084, 0.0168, 0.084, 0.0168, 0.084, 0.0168, 0.084, 0.0168, 0.084, 0.0168, 0.084, 0.0168, 0.084, 0.0168, 0.084, 0.0168, 0.084, 0.0168, 0.084, 0.0168, 0.084, 0.0168, 0.084, 0.0168, 0.084, 0.0168, 0.084, 0.0168, 0.084, 0.0168, 0.084, 0.0168, 0.084, 0.0168, 0.084, 0.0168]
    pose: 
      header: 
        seq: 42
        stamp: 
          secs: 1717595346
          nsecs: 249723434
        frame_id: "mono_cam"
      pose: 
        pose: 
          position: 
            x: -0.5805809107862672
            y: 0.014323346322695725
            z: 0.7391619508971576
          orientation: 
            x: 0.41182456258219863
            y: 0.6081961785169048
            z: -0.5119336139386432
            w: 0.4454457464283769
        covariance: [0.0, 0.0, 0.0, 0.0, 0.0, 0.0, 0.0, 0.0, 0.0, 0.0, 0.0, 0.0, 0.0, 0.0, 0.0, 0.0, 0.0, 0.0, 0.0, 0.0, 0.0, 0.0, 0.0, 0.0, 0.0, 0.0, 0.0, 0.0, 0.0, 0.0, 0.0, 0.0, 0.0, 0.0, 0.0, 0.0]
---
header: 
  seq: 43
  stamp: 
    secs: 1717595347
    nsecs: 249714136
  frame_id: "mono_cam"
detections: 
  - 
    id: [37]
    size: [0.0168]
    pose: 
      header: 
        seq: 43
        stamp: 
          secs: 1717595347
          nsecs: 249714136
        frame_id: "mono_cam"
      pose: 
        pose: 
          position: 
            x: -0.030954931916820066
            y: 0.025443861649101077
            z: 0.32395414976054565
          orientation: 
            x: 0.991486203460867
            y: 0.05909539973453756
            z: -0.11362484878002169
            w: -0.0234996982254798
        covariance: [0.0, 0.0, 0.0, 0.0, 0.0, 0.0, 0.0, 0.0, 0.0, 0.0, 0.0, 0.0, 0.0, 0.0, 0.0, 0.0, 0.0, 0.0, 0.0, 0.0, 0.0, 0.0, 0.0, 0.0, 0.0, 0.0, 0.0, 0.0, 0.0, 0.0, 0.0, 0.0, 0.0, 0.0, 0.0, 0.0]
  - 
    id: [36]
    size: [0.084]
    pose: 
      header: 
        seq: 43
        stamp: 
          secs: 1717595347
          nsecs: 249714136
        frame_id: "mono_cam"
      pose: 
        pose: 
          position: 
            x: -0.030774678017230033
            y: 0.02532456891635551
            z: 0.3234725109976318
          orientation: 
            x: 0.9887037791500939
            y: 0.06517235569870262
            z: -0.1315094204228804
            w: -0.030375540934149497
        covariance: [0.0, 0.0, 0.0, 0.0, 0.0, 0.0, 0.0, 0.0, 0.0, 0.0, 0.0, 0.0, 0.0, 0.0, 0.0, 0.0, 0.0, 0.0, 0.0, 0.0, 0.0, 0.0, 0.0, 0.0, 0.0, 0.0, 0.0, 0.0, 0.0, 0.0, 0.0, 0.0, 0.0, 0.0, 0.0, 0.0]
  - 
    id: [72, 73, 84, 85, 80, 81, 2, 3, 20, 21, 32, 33, 38, 39, 34, 35, 36, 37, 28, 29, 42, 43, 30, 31, 40, 41, 26, 27, 44, 45, 60, 61, 88, 89, 48, 49, 56, 57, 0, 1, 22, 23, 8, 9, 14, 15, 68, 69, 64, 65, 4, 5, 18, 19, 10, 11, 12, 13, 92, 93, 76, 77, 6, 7, 16, 17, 24, 25, 46, 47, 52, 53, 110, 109]
    size: [0.084, 0.0168, 0.084, 0.0168, 0.084, 0.0168, 0.084, 0.0168, 0.084, 0.0168, 0.084, 0.0168, 0.084, 0.0168, 0.084, 0.0168, 0.084, 0.0168, 0.084, 0.0168, 0.084, 0.0168, 0.084, 0.0168, 0.084, 0.0168, 0.084, 0.0168, 0.084, 0.0168, 0.084, 0.0168, 0.084, 0.0168, 0.084, 0.0168, 0.084, 0.0168, 0.084, 0.0168, 0.084, 0.0168, 0.084, 0.0168, 0.084, 0.0168, 0.084, 0.0168, 0.084, 0.0168, 0.084, 0.0168, 0.084, 0.0168, 0.084, 0.0168, 0.084, 0.0168, 0.084, 0.0168, 0.084, 0.0168, 0.084, 0.0168, 0.084, 0.0168, 0.084, 0.0168, 0.084, 0.0168, 0.084, 0.0168, 0.084, 0.0168]
    pose: 
      header: 
        seq: 43
        stamp: 
          secs: 1717595347
          nsecs: 249714136
        frame_id: "mono_cam"
      pose: 
        pose: 
          position: 
            x: -0.5804295777998152
            y: 0.014628255223496292
            z: 0.7393648668891603
          orientation: 
            x: 0.41155768766248335
            y: 0.6080916734447608
            z: -0.5122357006889787
            w: 0.4454877925967573
        covariance: [0.0, 0.0, 0.0, 0.0, 0.0, 0.0, 0.0, 0.0, 0.0, 0.0, 0.0, 0.0, 0.0, 0.0, 0.0, 0.0, 0.0, 0.0, 0.0, 0.0, 0.0, 0.0, 0.0, 0.0, 0.0, 0.0, 0.0, 0.0, 0.0, 0.0, 0.0, 0.0, 0.0, 0.0, 0.0, 0.0]
---
header: 
  seq: 44
  stamp: 
    secs: 1717595348
    nsecs: 249622344
  frame_id: "mono_cam"
detections: 
  - 
    id: [37]
    size: [0.0168]
    pose: 
      header: 
        seq: 44
        stamp: 
          secs: 1717595348
          nsecs: 249622344
        frame_id: "mono_cam"
      pose: 
        pose: 
          position: 
            x: -0.030726727785778674
            y: 0.025214058546214977
            z: 0.3208781389753425
          orientation: 
            x: 0.9891016101663981
            y: 0.058083312168358145
            z: -0.1277611152581532
            w: -0.04451326815438703
        covariance: [0.0, 0.0, 0.0, 0.0, 0.0, 0.0, 0.0, 0.0, 0.0, 0.0, 0.0, 0.0, 0.0, 0.0, 0.0, 0.0, 0.0, 0.0, 0.0, 0.0, 0.0, 0.0, 0.0, 0.0, 0.0, 0.0, 0.0, 0.0, 0.0, 0.0, 0.0, 0.0, 0.0, 0.0, 0.0, 0.0]
  - 
    id: [36]
    size: [0.084]
    pose: 
      header: 
        seq: 44
        stamp: 
          secs: 1717595348
          nsecs: 249622344
        frame_id: "mono_cam"
      pose: 
        pose: 
          position: 
            x: -0.03079195234256878
            y: 0.025336323768485915
            z: 0.32308229284136303
          orientation: 
            x: 0.9885290319921278
            y: 0.06482991217182817
            z: -0.13227192217760697
            w: -0.03334027594277904
        covariance: [0.0, 0.0, 0.0, 0.0, 0.0, 0.0, 0.0, 0.0, 0.0, 0.0, 0.0, 0.0, 0.0, 0.0, 0.0, 0.0, 0.0, 0.0, 0.0, 0.0, 0.0, 0.0, 0.0, 0.0, 0.0, 0.0, 0.0, 0.0, 0.0, 0.0, 0.0, 0.0, 0.0, 0.0, 0.0, 0.0]
  - 
    id: [72, 73, 84, 85, 80, 81, 2, 3, 20, 21, 32, 33, 38, 39, 34, 35, 36, 37, 28, 29, 42, 43, 30, 31, 40, 41, 26, 27, 44, 45, 60, 61, 88, 89, 48, 49, 56, 57, 0, 1, 22, 23, 8, 9, 14, 15, 68, 69, 64, 65, 4, 5, 18, 19, 10, 11, 12, 13, 92, 93, 76, 77, 6, 7, 16, 17, 24, 25, 46, 47, 52, 53, 110, 109]
